[
  {
    "state": "PA",
    "ibge": 1500107,
    "city": "Abaetetuba",
    "latitude": -1.72183,
    "longitude": -48.8788
  },
  {
    "state": "PA",
    "ibge": 1500131,
    "city": "Abel Figueiredo",
    "latitude": -4.95333,
    "longitude": -48.3933
  },
  {
    "state": "PA",
    "ibge": 1500206,
    "city": "Acará",
    "latitude": -1.95383,
    "longitude": -48.1985
  },
  {
    "state": "PA",
    "ibge": 1500305,
    "city": "Afuá",
    "latitude": -0.154874,
    "longitude": -50.3861
  },
  {
    "state": "PA",
    "ibge": 1500347,
    "city": "Água Azul do Norte",
    "latitude": -6.79053,
    "longitude": -50.4791
  },
  {
    "state": "PA",
    "ibge": 1500404,
    "city": "Alenquer",
    "latitude": -1.94623,
    "longitude": -54.7384
  },
  {
    "state": "PA",
    "ibge": 1500503,
    "city": "Almeirim",
    "latitude": -1.52904,
    "longitude": -52.5788
  },
  {
    "state": "PA",
    "ibge": 1500602,
    "city": "Altamira",
    "latitude": -3.20407,
    "longitude": -52.21
  },
  {
    "state": "PA",
    "ibge": 1500701,
    "city": "Anajás",
    "latitude": -0.996811,
    "longitude": -49.9354
  },
  {
    "state": "PA",
    "ibge": 1500800,
    "city": "Ananindeua",
    "latitude": -1.36391,
    "longitude": -48.3743
  },
  {
    "state": "PA",
    "ibge": 1500859,
    "city": "Anapu",
    "latitude": -3.46985,
    "longitude": -51.2003
  },
  {
    "state": "PA",
    "ibge": 1500909,
    "city": "Augusto Corrêa",
    "latitude": -1.05109,
    "longitude": -46.6147
  },
  {
    "state": "PA",
    "ibge": 1500958,
    "city": "Aurora do Pará",
    "latitude": -2.14898,
    "longitude": -47.5677
  },
  {
    "state": "PA",
    "ibge": 1501006,
    "city": "Aveiro",
    "latitude": -3.60841,
    "longitude": -55.3199
  },
  {
    "state": "PA",
    "ibge": 1501105,
    "city": "Bagre",
    "latitude": -1.90057,
    "longitude": -50.1987
  },
  {
    "state": "PA",
    "ibge": 1501204,
    "city": "Baião",
    "latitude": -2.79021,
    "longitude": -49.6694
  },
  {
    "state": "PA",
    "ibge": 1501253,
    "city": "Bannach",
    "latitude": -7.34779,
    "longitude": -50.3959
  },
  {
    "state": "PA",
    "ibge": 1501303,
    "city": "Barcarena",
    "latitude": -1.51187,
    "longitude": -48.6195
  },
  {
    "state": "PA",
    "ibge": 1501402,
    "city": "Belém",
    "latitude": -1.4554,
    "longitude": -48.4898
  },
  {
    "state": "PA",
    "ibge": 1501451,
    "city": "Belterra",
    "latitude": -2.63609,
    "longitude": -54.9374
  },
  {
    "state": "PA",
    "ibge": 1501501,
    "city": "Benevides",
    "latitude": -1.36183,
    "longitude": -48.2434
  },
  {
    "state": "PA",
    "ibge": 1501576,
    "city": "Bom Jesus do Tocantins",
    "latitude": -5.0424,
    "longitude": -48.6047
  },
  {
    "state": "PA",
    "ibge": 1501600,
    "city": "Bonito",
    "latitude": -1.36745,
    "longitude": -47.3066
  },
  {
    "state": "PA",
    "ibge": 1501709,
    "city": "Bragança",
    "latitude": -1.06126,
    "longitude": -46.7826
  },
  {
    "state": "PA",
    "ibge": 1501725,
    "city": "Brasil Novo",
    "latitude": -3.29792,
    "longitude": -52.534
  },
  {
    "state": "PA",
    "ibge": 1501758,
    "city": "Brejo Grande do Araguaia",
    "latitude": -5.69822,
    "longitude": -48.4103
  },
  {
    "state": "PA",
    "ibge": 1501782,
    "city": "Breu Branco",
    "latitude": -3.77191,
    "longitude": -49.5735
  },
  {
    "state": "PA",
    "ibge": 1501808,
    "city": "Breves",
    "latitude": -1.68036,
    "longitude": -50.4791
  },
  {
    "state": "PA",
    "ibge": 1501907,
    "city": "Bujaru",
    "latitude": -1.51762,
    "longitude": -48.0381
  },
  {
    "state": "PA",
    "ibge": 1502004,
    "city": "Cachoeira do Arari",
    "latitude": -1.01226,
    "longitude": -48.9503
  },
  {
    "state": "PA",
    "ibge": 1501956,
    "city": "Cachoeira do Piriá",
    "latitude": -1.75974,
    "longitude": -46.5459
  },
  {
    "state": "PA",
    "ibge": 1502103,
    "city": "Cametá",
    "latitude": -2.24295,
    "longitude": -49.4979
  },
  {
    "state": "PA",
    "ibge": 1502152,
    "city": "Canaã dos Carajás",
    "latitude": -6.49659,
    "longitude": -49.8776
  },
  {
    "state": "PA",
    "ibge": 1502202,
    "city": "Capanema",
    "latitude": -1.20529,
    "longitude": -47.1778
  },
  {
    "state": "PA",
    "ibge": 1502301,
    "city": "Capitão Poço",
    "latitude": -1.74785,
    "longitude": -47.0629
  },
  {
    "state": "PA",
    "ibge": 1502400,
    "city": "Castanhal",
    "latitude": -1.29797,
    "longitude": -47.9167
  },
  {
    "state": "PA",
    "ibge": 1502509,
    "city": "Chaves",
    "latitude": -0.164154,
    "longitude": -49.987
  },
  {
    "state": "PA",
    "ibge": 1502608,
    "city": "Colares",
    "latitude": -0.936423,
    "longitude": -48.2803
  },
  {
    "state": "PA",
    "ibge": 1502707,
    "city": "Conceição do Araguaia",
    "latitude": -8.26136,
    "longitude": -49.2689
  },
  {
    "state": "PA",
    "ibge": 1502756,
    "city": "Concórdia do Pará",
    "latitude": -1.99238,
    "longitude": -47.9422
  },
  {
    "state": "PA",
    "ibge": 1502764,
    "city": "Cumaru do Norte",
    "latitude": -7.81097,
    "longitude": -50.7698
  },
  {
    "state": "PA",
    "ibge": 1502772,
    "city": "Curionópolis",
    "latitude": -6.09965,
    "longitude": -49.6068
  },
  {
    "state": "PA",
    "ibge": 1502806,
    "city": "Curralinho",
    "latitude": -1.81179,
    "longitude": -49.7952
  },
  {
    "state": "PA",
    "ibge": 1502855,
    "city": "Curuá",
    "latitude": -1.88775,
    "longitude": -55.1168
  },
  {
    "state": "PA",
    "ibge": 1502905,
    "city": "Curuçá",
    "latitude": -0.733214,
    "longitude": -47.8515
  },
  {
    "state": "PA",
    "ibge": 1502939,
    "city": "Dom Eliseu",
    "latitude": -4.19944,
    "longitude": -47.8245
  },
  {
    "state": "PA",
    "ibge": 1502954,
    "city": "Eldorado do Carajás",
    "latitude": -6.10389,
    "longitude": -49.3553
  },
  {
    "state": "PA",
    "ibge": 1503002,
    "city": "Faro",
    "latitude": -2.16805,
    "longitude": -56.7405
  },
  {
    "state": "PA",
    "ibge": 1503044,
    "city": "Floresta do Araguaia",
    "latitude": -7.55335,
    "longitude": -49.7125
  },
  {
    "state": "PA",
    "ibge": 1503077,
    "city": "Garrafão do Norte",
    "latitude": -1.92986,
    "longitude": -47.0505
  },
  {
    "state": "PA",
    "ibge": 1503093,
    "city": "Goianésia do Pará",
    "latitude": -3.84338,
    "longitude": -49.0974
  },
  {
    "state": "PA",
    "ibge": 1503101,
    "city": "Gurupá",
    "latitude": -1.41412,
    "longitude": -51.6338
  },
  {
    "state": "PA",
    "ibge": 1503200,
    "city": "Igarapé-Açu",
    "latitude": -1.12539,
    "longitude": -47.626
  },
  {
    "state": "PA",
    "ibge": 1503309,
    "city": "Igarapé-Miri",
    "latitude": -1.97533,
    "longitude": -48.9575
  },
  {
    "state": "PA",
    "ibge": 1503408,
    "city": "Inhangapi",
    "latitude": -1.4349,
    "longitude": -47.9114
  },
  {
    "state": "PA",
    "ibge": 1503457,
    "city": "Ipixuna do Pará",
    "latitude": -2.55992,
    "longitude": -47.5059
  },
  {
    "state": "PA",
    "ibge": 1503507,
    "city": "Irituia",
    "latitude": -1.76984,
    "longitude": -47.446
  },
  {
    "state": "PA",
    "ibge": 1503606,
    "city": "Itaituba",
    "latitude": -4.2667,
    "longitude": -55.9926
  },
  {
    "state": "PA",
    "ibge": 1503705,
    "city": "Itupiranga",
    "latitude": -5.13272,
    "longitude": -49.3358
  },
  {
    "state": "PA",
    "ibge": 1503754,
    "city": "Jacareacanga",
    "latitude": -6.21469,
    "longitude": -57.7544
  },
  {
    "state": "PA",
    "ibge": 1503804,
    "city": "Jacundá",
    "latitude": -4.44617,
    "longitude": -49.1153
  },
  {
    "state": "PA",
    "ibge": 1503903,
    "city": "Juruti",
    "latitude": -2.16347,
    "longitude": -56.0889
  },
  {
    "state": "PA",
    "ibge": 1504000,
    "city": "Limoeiro do Ajuru",
    "latitude": -1.8985,
    "longitude": -49.3903
  },
  {
    "state": "PA",
    "ibge": 1504059,
    "city": "Mãe do Rio",
    "latitude": -2.05683,
    "longitude": -47.5601
  },
  {
    "state": "PA",
    "ibge": 1504109,
    "city": "Magalhães Barata",
    "latitude": -0.803391,
    "longitude": -47.6014
  },
  {
    "state": "PA",
    "ibge": 1504208,
    "city": "Marabá",
    "latitude": -5.38075,
    "longitude": -49.1327
  },
  {
    "state": "PA",
    "ibge": 1504307,
    "city": "Maracanã",
    "latitude": -0.778899,
    "longitude": -47.452
  },
  {
    "state": "PA",
    "ibge": 1504406,
    "city": "Marapanim",
    "latitude": -0.714702,
    "longitude": -47.7034
  },
  {
    "state": "PA",
    "ibge": 1504422,
    "city": "Marituba",
    "latitude": -1.36002,
    "longitude": -48.3421
  },
  {
    "state": "PA",
    "ibge": 1504455,
    "city": "Medicilândia",
    "latitude": -3.44637,
    "longitude": -52.8875
  },
  {
    "state": "PA",
    "ibge": 1504505,
    "city": "Melgaço",
    "latitude": -1.8032,
    "longitude": -50.7149
  },
  {
    "state": "PA",
    "ibge": 1504604,
    "city": "Mocajuba",
    "latitude": -2.5831,
    "longitude": -49.5042
  },
  {
    "state": "PA",
    "ibge": 1504703,
    "city": "Moju",
    "latitude": -1.88993,
    "longitude": -48.7668
  },
  {
    "state": "PA",
    "ibge": 1504752,
    "city": "Mojuí dos Campos",
    "latitude": -2.6822,
    "longitude": -54.6425
  },
  {
    "state": "PA",
    "ibge": 1504802,
    "city": "Monte Alegre",
    "latitude": -1.99768,
    "longitude": -54.0724
  },
  {
    "state": "PA",
    "ibge": 1504901,
    "city": "Muaná",
    "latitude": -1.53936,
    "longitude": -49.2224
  },
  {
    "state": "PA",
    "ibge": 1504950,
    "city": "Nova Esperança do Piriá",
    "latitude": -2.26693,
    "longitude": -46.9731
  },
  {
    "state": "PA",
    "ibge": 1504976,
    "city": "Nova Ipixuna",
    "latitude": -4.91622,
    "longitude": -49.0822
  },
  {
    "state": "PA",
    "ibge": 1505007,
    "city": "Nova Timboteua",
    "latitude": -1.20874,
    "longitude": -47.3921
  },
  {
    "state": "PA",
    "ibge": 1505031,
    "city": "Novo Progresso",
    "latitude": -7.14347,
    "longitude": -55.3786
  },
  {
    "state": "PA",
    "ibge": 1505064,
    "city": "Novo Repartimento",
    "latitude": -4.24749,
    "longitude": -49.9499
  },
  {
    "state": "PA",
    "ibge": 1505106,
    "city": "Óbidos",
    "latitude": -1.90107,
    "longitude": -55.5208
  },
  {
    "state": "PA",
    "ibge": 1505205,
    "city": "Oeiras do Pará",
    "latitude": -2.00358,
    "longitude": -49.8628
  },
  {
    "state": "PA",
    "ibge": 1505304,
    "city": "Oriximiná",
    "latitude": -1.75989,
    "longitude": -55.8579
  },
  {
    "state": "PA",
    "ibge": 1505403,
    "city": "Ourém",
    "latitude": -1.54168,
    "longitude": -47.1126
  },
  {
    "state": "PA",
    "ibge": 1505437,
    "city": "Ourilândia do Norte",
    "latitude": -6.7529,
    "longitude": -51.0858
  },
  {
    "state": "PA",
    "ibge": 1505486,
    "city": "Pacajá",
    "latitude": -3.83542,
    "longitude": -50.6399
  },
  {
    "state": "PA",
    "ibge": 1505494,
    "city": "Palestina do Pará",
    "latitude": -5.74027,
    "longitude": -48.3181
  },
  {
    "state": "PA",
    "ibge": 1505502,
    "city": "Paragominas",
    "latitude": -3.00212,
    "longitude": -47.3527
  },
  {
    "state": "PA",
    "ibge": 1505536,
    "city": "Parauapebas",
    "latitude": -6.06781,
    "longitude": -49.9037
  },
  {
    "state": "PA",
    "ibge": 1505551,
    "city": "Pau d'Arco",
    "latitude": -1.59772,
    "longitude": -46.9268
  },
  {
    "state": "PA",
    "ibge": 1505601,
    "city": "Peixe-Boi",
    "latitude": -1.19382,
    "longitude": -47.324
  },
  {
    "state": "PA",
    "ibge": 1505635,
    "city": "Piçarra",
    "latitude": -6.43778,
    "longitude": -48.8716
  },
  {
    "state": "PA",
    "ibge": 1505650,
    "city": "Placas",
    "latitude": -3.86813,
    "longitude": -54.2124
  },
  {
    "state": "PA",
    "ibge": 1505700,
    "city": "Ponta de Pedras",
    "latitude": -1.39587,
    "longitude": -48.8661
  },
  {
    "state": "PA",
    "ibge": 1505809,
    "city": "Portel",
    "latitude": -1.93639,
    "longitude": -50.8194
  },
  {
    "state": "PA",
    "ibge": 1505908,
    "city": "Porto de Moz",
    "latitude": -1.74691,
    "longitude": -52.2361
  },
  {
    "state": "PA",
    "ibge": 1506005,
    "city": "Prainha",
    "latitude": -1.798,
    "longitude": -53.4779
  },
  {
    "state": "PA",
    "ibge": 1506104,
    "city": "Primavera",
    "latitude": -0.945439,
    "longitude": -47.1253
  },
  {
    "state": "PA",
    "ibge": 1506112,
    "city": "Quatipuru",
    "latitude": -0.899604,
    "longitude": -47.0134
  },
  {
    "state": "PA",
    "ibge": 1506138,
    "city": "Redenção",
    "latitude": -8.02529,
    "longitude": -50.0317
  },
  {
    "state": "PA",
    "ibge": 1506161,
    "city": "Rio Maria",
    "latitude": -7.31236,
    "longitude": -50.0379
  },
  {
    "state": "PA",
    "ibge": 1506187,
    "city": "Rondon do Pará",
    "latitude": -4.77793,
    "longitude": -48.067
  },
  {
    "state": "PA",
    "ibge": 1506195,
    "city": "Rurópolis",
    "latitude": -4.10028,
    "longitude": -54.9092
  },
  {
    "state": "PA",
    "ibge": 1506203,
    "city": "Salinópolis",
    "latitude": -0.630815,
    "longitude": -47.3465
  },
  {
    "state": "PA",
    "ibge": 1506302,
    "city": "Salvaterra",
    "latitude": -0.758444,
    "longitude": -48.5139
  },
  {
    "state": "PA",
    "ibge": 1506351,
    "city": "Santa Bárbara do Pará",
    "latitude": -1.19219,
    "longitude": -48.238
  },
  {
    "state": "PA",
    "ibge": 1506401,
    "city": "Santa Cruz do Arari",
    "latitude": -0.661019,
    "longitude": -49.1771
  },
  {
    "state": "PA",
    "ibge": 1506500,
    "city": "Santa Izabel do Pará",
    "latitude": -1.29686,
    "longitude": -48.1606
  },
  {
    "state": "PA",
    "ibge": 1506559,
    "city": "Santa Luzia do Pará",
    "latitude": -1.52147,
    "longitude": -46.9008
  },
  {
    "state": "PA",
    "ibge": 1506583,
    "city": "Santa Maria das Barreiras",
    "latitude": -8.85784,
    "longitude": -49.7215
  },
  {
    "state": "PA",
    "ibge": 1506609,
    "city": "Santa Maria do Pará",
    "latitude": -1.35392,
    "longitude": -47.5712
  },
  {
    "state": "PA",
    "ibge": 1506708,
    "city": "Santana do Araguaia",
    "latitude": -9.3281,
    "longitude": -50.35
  },
  {
    "state": "PA",
    "ibge": 1506807,
    "city": "Santarém",
    "latitude": -2.43849,
    "longitude": -54.6996
  },
  {
    "state": "PA",
    "ibge": 1506906,
    "city": "Santarém Novo",
    "latitude": -0.93097,
    "longitude": -47.3855
  },
  {
    "state": "PA",
    "ibge": 1507003,
    "city": "Santo Antônio do Tauá",
    "latitude": -1.1522,
    "longitude": -48.1314
  },
  {
    "state": "PA",
    "ibge": 1507102,
    "city": "São Caetano de Odivelas",
    "latitude": -0.747293,
    "longitude": -48.0246
  },
  {
    "state": "PA",
    "ibge": 1507151,
    "city": "São Domingos do Araguaia",
    "latitude": -5.53732,
    "longitude": -48.7366
  },
  {
    "state": "PA",
    "ibge": 1507201,
    "city": "São Domingos do Capim",
    "latitude": -1.68768,
    "longitude": -47.7665
  },
  {
    "state": "PA",
    "ibge": 1507300,
    "city": "São Félix do Xingu",
    "latitude": -6.64254,
    "longitude": -51.9904
  },
  {
    "state": "PA",
    "ibge": 1507409,
    "city": "São Francisco do Pará",
    "latitude": -1.16963,
    "longitude": -47.7917
  },
  {
    "state": "PA",
    "ibge": 1507458,
    "city": "São Geraldo do Araguaia",
    "latitude": -6.39471,
    "longitude": -48.5592
  },
  {
    "state": "PA",
    "ibge": 1507466,
    "city": "São João da Ponta",
    "latitude": -0.857885,
    "longitude": -47.918
  },
  {
    "state": "PA",
    "ibge": 1507474,
    "city": "São João de Pirabas",
    "latitude": -0.780222,
    "longitude": -47.181
  },
  {
    "state": "PA",
    "ibge": 1507508,
    "city": "São João do Araguaia",
    "latitude": -5.36334,
    "longitude": -48.7926
  },
  {
    "state": "PA",
    "ibge": 1507607,
    "city": "São Miguel do Guamá",
    "latitude": -1.61307,
    "longitude": -47.4784
  },
  {
    "state": "PA",
    "ibge": 1507706,
    "city": "São Sebastião da Boa Vista",
    "latitude": -1.71597,
    "longitude": -49.5249
  },
  {
    "state": "PA",
    "ibge": 1507755,
    "city": "Sapucaia",
    "latitude": -6.94018,
    "longitude": -49.6834
  },
  {
    "state": "PA",
    "ibge": 1507805,
    "city": "Senador José Porfírio",
    "latitude": -4.31242,
    "longitude": -51.5764
  },
  {
    "state": "PA",
    "ibge": 1507904,
    "city": "Soure",
    "latitude": -0.73032,
    "longitude": -48.5015
  },
  {
    "state": "PA",
    "ibge": 1507953,
    "city": "Tailândia",
    "latitude": -2.94584,
    "longitude": -48.9489
  },
  {
    "state": "PA",
    "ibge": 1507961,
    "city": "Terra Alta",
    "latitude": -1.02963,
    "longitude": -47.9004
  },
  {
    "state": "PA",
    "ibge": 1507979,
    "city": "Terra Santa",
    "latitude": -2.10443,
    "longitude": -56.4877
  },
  {
    "state": "PA",
    "ibge": 1508001,
    "city": "Tomé-Açu",
    "latitude": -2.41302,
    "longitude": -48.1415
  },
  {
    "state": "PA",
    "ibge": 1508035,
    "city": "Tracuateua",
    "latitude": -1.07653,
    "longitude": -46.9031
  },
  {
    "state": "PA",
    "ibge": 1508050,
    "city": "Trairão",
    "latitude": -4.57347,
    "longitude": -55.9429
  },
  {
    "state": "PA",
    "ibge": 1508084,
    "city": "Tucumã",
    "latitude": -6.74687,
    "longitude": -51.1626
  },
  {
    "state": "PA",
    "ibge": 1508100,
    "city": "Tucuruí",
    "latitude": -3.7657,
    "longitude": -49.6773
  },
  {
    "state": "PA",
    "ibge": 1508126,
    "city": "Ulianópolis",
    "latitude": -3.75007,
    "longitude": -47.4892
  },
  {
    "state": "PA",
    "ibge": 1508159,
    "city": "Uruará",
    "latitude": -3.71519,
    "longitude": -53.7396
  },
  {
    "state": "PA",
    "ibge": 1508209,
    "city": "Vigia",
    "latitude": -0.861194,
    "longitude": -48.1386
  },
  {
    "state": "PA",
    "ibge": 1508308,
    "city": "Viseu",
    "latitude": -1.19124,
    "longitude": -46.1399
  },
  {
    "state": "PA",
    "ibge": 1508357,
    "city": "Vitória do Xingu",
    "latitude": -2.87922,
    "longitude": -52.0088
  },
  {
    "state": "PA",
    "ibge": 1508407,
    "city": "Xinguara",
    "latitude": -7.0983,
    "longitude": -49.9437
  }
]