[
  {
    "state": "PI",
    "ibge": 2200053,
    "city": "Acauã",
    "latitude": -8.21954,
    "longitude": -41.0831
  },
  {
    "state": "PI",
    "ibge": 2200103,
    "city": "Agricolândia",
    "latitude": -5.79676,
    "longitude": -42.6664
  },
  {
    "state": "PI",
    "ibge": 2200202,
    "city": "Água Branca",
    "latitude": -5.88856,
    "longitude": -42.637
  },
  {
    "state": "PI",
    "ibge": 2200251,
    "city": "Alagoinha do Piauí",
    "latitude": -7.00039,
    "longitude": -40.9282
  },
  {
    "state": "PI",
    "ibge": 2200277,
    "city": "Alegrete do Piauí",
    "latitude": -7.24196,
    "longitude": -40.8566
  },
  {
    "state": "PI",
    "ibge": 2200301,
    "city": "Alto Longá",
    "latitude": -5.25634,
    "longitude": -42.2096
  },
  {
    "state": "PI",
    "ibge": 2200400,
    "city": "Altos",
    "latitude": -5.03888,
    "longitude": -42.4612
  },
  {
    "state": "PI",
    "ibge": 2200459,
    "city": "Alvorada do Gurguéia",
    "latitude": -8.42418,
    "longitude": -43.777
  },
  {
    "state": "PI",
    "ibge": 2200509,
    "city": "Amarante",
    "latitude": -6.24304,
    "longitude": -42.8433
  },
  {
    "state": "PI",
    "ibge": 2200608,
    "city": "Angical do Piauí",
    "latitude": -6.08786,
    "longitude": -42.74
  },
  {
    "state": "PI",
    "ibge": 2200707,
    "city": "Anísio de Abreu",
    "latitude": -9.18564,
    "longitude": -43.0494
  },
  {
    "state": "PI",
    "ibge": 2200806,
    "city": "Antônio Almeida",
    "latitude": -7.21276,
    "longitude": -44.1889
  },
  {
    "state": "PI",
    "ibge": 2200905,
    "city": "Aroazes",
    "latitude": -6.11022,
    "longitude": -41.7822
  },
  {
    "state": "PI",
    "ibge": 2200954,
    "city": "Aroeiras do Itaim",
    "latitude": -7.24502,
    "longitude": -41.5325
  },
  {
    "state": "PI",
    "ibge": 2201002,
    "city": "Arraial",
    "latitude": -6.65075,
    "longitude": -42.5418
  },
  {
    "state": "PI",
    "ibge": 2201051,
    "city": "Assunção do Piauí",
    "latitude": -5.865,
    "longitude": -41.0389
  },
  {
    "state": "PI",
    "ibge": 2201101,
    "city": "Avelino Lopes",
    "latitude": -10.1345,
    "longitude": -43.9563
  },
  {
    "state": "PI",
    "ibge": 2201150,
    "city": "Baixa Grande do Ribeiro",
    "latitude": -7.84903,
    "longitude": -45.219
  },
  {
    "state": "PI",
    "ibge": 2201176,
    "city": "Barra D'Alcântara",
    "latitude": -6.51645,
    "longitude": -42.1146
  },
  {
    "state": "PI",
    "ibge": 2201200,
    "city": "Barras",
    "latitude": -4.24468,
    "longitude": -42.2922
  },
  {
    "state": "PI",
    "ibge": 2201309,
    "city": "Barreiras do Piauí",
    "latitude": -9.9296,
    "longitude": -45.4702
  },
  {
    "state": "PI",
    "ibge": 2201408,
    "city": "Barro Duro",
    "latitude": -5.81673,
    "longitude": -42.5147
  },
  {
    "state": "PI",
    "ibge": 2201507,
    "city": "Batalha",
    "latitude": -4.0223,
    "longitude": -42.0787
  },
  {
    "state": "PI",
    "ibge": 2201556,
    "city": "Bela Vista do Piauí",
    "latitude": -7.98809,
    "longitude": -41.8675
  },
  {
    "state": "PI",
    "ibge": 2201572,
    "city": "Belém do Piauí",
    "latitude": -7.36652,
    "longitude": -40.9688
  },
  {
    "state": "PI",
    "ibge": 2201606,
    "city": "Beneditinos",
    "latitude": -5.45676,
    "longitude": -42.3638
  },
  {
    "state": "PI",
    "ibge": 2201705,
    "city": "Bertolínia",
    "latitude": -7.63338,
    "longitude": -43.9498
  },
  {
    "state": "PI",
    "ibge": 2201739,
    "city": "Betânia do Piauí",
    "latitude": -8.14376,
    "longitude": -40.7989
  },
  {
    "state": "PI",
    "ibge": 2201770,
    "city": "Boa Hora",
    "latitude": -4.41404,
    "longitude": -42.1357
  },
  {
    "state": "PI",
    "ibge": 2201804,
    "city": "Bocaina",
    "latitude": -6.94124,
    "longitude": -41.3168
  },
  {
    "state": "PI",
    "ibge": 2201903,
    "city": "Bom Jesus",
    "latitude": -9.07124,
    "longitude": -44.359
  },
  {
    "state": "PI",
    "ibge": 2201919,
    "city": "Bom Princípio do Piauí",
    "latitude": -3.19631,
    "longitude": -41.6403
  },
  {
    "state": "PI",
    "ibge": 2201929,
    "city": "Bonfim do Piauí",
    "latitude": -9.1605,
    "longitude": -42.8865
  },
  {
    "state": "PI",
    "ibge": 2201945,
    "city": "Boqueirão do Piauí",
    "latitude": -4.48181,
    "longitude": -42.1212
  },
  {
    "state": "PI",
    "ibge": 2201960,
    "city": "Brasileira",
    "latitude": -4.1337,
    "longitude": -41.7859
  },
  {
    "state": "PI",
    "ibge": 2201988,
    "city": "Brejo do Piauí",
    "latitude": -8.20314,
    "longitude": -42.8229
  },
  {
    "state": "PI",
    "ibge": 2202000,
    "city": "Buriti dos Lopes",
    "latitude": -3.18259,
    "longitude": -41.8695
  },
  {
    "state": "PI",
    "ibge": 2202026,
    "city": "Buriti dos Montes",
    "latitude": -5.30584,
    "longitude": -41.0933
  },
  {
    "state": "PI",
    "ibge": 2202059,
    "city": "Cabeceiras do Piauí",
    "latitude": -4.4773,
    "longitude": -42.3069
  },
  {
    "state": "PI",
    "ibge": 2202075,
    "city": "Cajazeiras do Piauí",
    "latitude": -6.79667,
    "longitude": -42.3903
  },
  {
    "state": "PI",
    "ibge": 2202083,
    "city": "Cajueiro da Praia",
    "latitude": -2.93111,
    "longitude": -41.3408
  },
  {
    "state": "PI",
    "ibge": 2202091,
    "city": "Caldeirão Grande do Piauí",
    "latitude": -7.3314,
    "longitude": -40.6366
  },
  {
    "state": "PI",
    "ibge": 2202109,
    "city": "Campinas do Piauí",
    "latitude": -7.6593,
    "longitude": -41.8775
  },
  {
    "state": "PI",
    "ibge": 2202117,
    "city": "Campo Alegre do Fidalgo",
    "latitude": -8.38236,
    "longitude": -41.8344
  },
  {
    "state": "PI",
    "ibge": 2202133,
    "city": "Campo Grande do Piauí",
    "latitude": -7.12827,
    "longitude": -41.0315
  },
  {
    "state": "PI",
    "ibge": 2202174,
    "city": "Campo Largo do Piauí",
    "latitude": -3.80441,
    "longitude": -42.64
  },
  {
    "state": "PI",
    "ibge": 2202208,
    "city": "Campo Maior",
    "latitude": -4.8217,
    "longitude": -42.1641
  },
  {
    "state": "PI",
    "ibge": 2202251,
    "city": "Canavieira",
    "latitude": -7.68821,
    "longitude": -43.7233
  },
  {
    "state": "PI",
    "ibge": 2202307,
    "city": "Canto do Buriti",
    "latitude": -8.1111,
    "longitude": -42.9517
  },
  {
    "state": "PI",
    "ibge": 2202406,
    "city": "Capitão de Campos",
    "latitude": -4.457,
    "longitude": -41.944
  },
  {
    "state": "PI",
    "ibge": 2202455,
    "city": "Capitão Gervásio Oliveira",
    "latitude": -8.49655,
    "longitude": -41.814
  },
  {
    "state": "PI",
    "ibge": 2202505,
    "city": "Caracol",
    "latitude": -9.27933,
    "longitude": -43.329
  },
  {
    "state": "PI",
    "ibge": 2202539,
    "city": "Caraúbas do Piauí",
    "latitude": -3.47525,
    "longitude": -41.8425
  },
  {
    "state": "PI",
    "ibge": 2202554,
    "city": "Caridade do Piauí",
    "latitude": -7.73435,
    "longitude": -40.9848
  },
  {
    "state": "PI",
    "ibge": 2202604,
    "city": "Castelo do Piauí",
    "latitude": -5.31869,
    "longitude": -41.5499
  },
  {
    "state": "PI",
    "ibge": 2202653,
    "city": "Caxingó",
    "latitude": -3.41904,
    "longitude": -41.8955
  },
  {
    "state": "PI",
    "ibge": 2202703,
    "city": "Cocal",
    "latitude": -3.47279,
    "longitude": -41.5546
  },
  {
    "state": "PI",
    "ibge": 2202711,
    "city": "Cocal de Telha",
    "latitude": -4.5571,
    "longitude": -41.9587
  },
  {
    "state": "PI",
    "ibge": 2202729,
    "city": "Cocal dos Alves",
    "latitude": -3.62047,
    "longitude": -41.4402
  },
  {
    "state": "PI",
    "ibge": 2202737,
    "city": "Coivaras",
    "latitude": -5.09224,
    "longitude": -42.208
  },
  {
    "state": "PI",
    "ibge": 2202752,
    "city": "Colônia do Gurguéia",
    "latitude": -8.1837,
    "longitude": -43.794
  },
  {
    "state": "PI",
    "ibge": 2202778,
    "city": "Colônia do Piauí",
    "latitude": -7.22651,
    "longitude": -42.1756
  },
  {
    "state": "PI",
    "ibge": 2202802,
    "city": "Conceição do Canindé",
    "latitude": -7.87638,
    "longitude": -41.5942
  },
  {
    "state": "PI",
    "ibge": 2202851,
    "city": "Coronel José Dias",
    "latitude": -8.81397,
    "longitude": -42.5232
  },
  {
    "state": "PI",
    "ibge": 2202901,
    "city": "Corrente",
    "latitude": -10.4333,
    "longitude": -45.1633
  },
  {
    "state": "PI",
    "ibge": 2203008,
    "city": "Cristalândia do Piauí",
    "latitude": -10.6443,
    "longitude": -45.1893
  },
  {
    "state": "PI",
    "ibge": 2203107,
    "city": "Cristino Castro",
    "latitude": -8.82273,
    "longitude": -44.223
  },
  {
    "state": "PI",
    "ibge": 2203206,
    "city": "Curimatá",
    "latitude": -10.0326,
    "longitude": -44.3002
  },
  {
    "state": "PI",
    "ibge": 2203230,
    "city": "Currais",
    "latitude": -9.01175,
    "longitude": -44.4062
  },
  {
    "state": "PI",
    "ibge": 2203271,
    "city": "Curral Novo do Piauí",
    "latitude": -7.8313,
    "longitude": -40.8957
  },
  {
    "state": "PI",
    "ibge": 2203255,
    "city": "Curralinhos",
    "latitude": -5.60825,
    "longitude": -42.8376
  },
  {
    "state": "PI",
    "ibge": 2203305,
    "city": "Demerval Lobão",
    "latitude": -5.35875,
    "longitude": -42.6776
  },
  {
    "state": "PI",
    "ibge": 2203354,
    "city": "Dirceu Arcoverde",
    "latitude": -9.33939,
    "longitude": -42.4348
  },
  {
    "state": "PI",
    "ibge": 2203404,
    "city": "Dom Expedito Lopes",
    "latitude": -6.95332,
    "longitude": -41.6396
  },
  {
    "state": "PI",
    "ibge": 2203453,
    "city": "Dom Inocêncio",
    "latitude": -9.00516,
    "longitude": -41.9697
  },
  {
    "state": "PI",
    "ibge": 2203420,
    "city": "Domingos Mourão",
    "latitude": -4.2495,
    "longitude": -41.2683
  },
  {
    "state": "PI",
    "ibge": 2203503,
    "city": "Elesbão Veloso",
    "latitude": -6.19947,
    "longitude": -42.1355
  },
  {
    "state": "PI",
    "ibge": 2203602,
    "city": "Eliseu Martins",
    "latitude": -8.09629,
    "longitude": -43.6705
  },
  {
    "state": "PI",
    "ibge": 2203701,
    "city": "Esperantina",
    "latitude": -3.88863,
    "longitude": -42.2324
  },
  {
    "state": "PI",
    "ibge": 2203750,
    "city": "Fartura do Piauí",
    "latitude": -9.48342,
    "longitude": -42.7912
  },
  {
    "state": "PI",
    "ibge": 2203800,
    "city": "Flores do Piauí",
    "latitude": -7.78793,
    "longitude": -42.918
  },
  {
    "state": "PI",
    "ibge": 2203859,
    "city": "Floresta do Piauí",
    "latitude": -7.46682,
    "longitude": -41.7883
  },
  {
    "state": "PI",
    "ibge": 2203909,
    "city": "Floriano",
    "latitude": -6.77182,
    "longitude": -43.0241
  },
  {
    "state": "PI",
    "ibge": 2204006,
    "city": "Francinópolis",
    "latitude": -6.39334,
    "longitude": -42.2591
  },
  {
    "state": "PI",
    "ibge": 2204105,
    "city": "Francisco Ayres",
    "latitude": -6.62606,
    "longitude": -42.6881
  },
  {
    "state": "PI",
    "ibge": 2204154,
    "city": "Francisco Macedo",
    "latitude": -7.331,
    "longitude": -40.788
  },
  {
    "state": "PI",
    "ibge": 2204204,
    "city": "Francisco Santos",
    "latitude": -6.99491,
    "longitude": -41.1288
  },
  {
    "state": "PI",
    "ibge": 2204303,
    "city": "Fronteiras",
    "latitude": -7.08173,
    "longitude": -40.6146
  },
  {
    "state": "PI",
    "ibge": 2204352,
    "city": "Geminiano",
    "latitude": -7.15476,
    "longitude": -41.3409
  },
  {
    "state": "PI",
    "ibge": 2204402,
    "city": "Gilbués",
    "latitude": -9.83001,
    "longitude": -45.3423
  },
  {
    "state": "PI",
    "ibge": 2204501,
    "city": "Guadalupe",
    "latitude": -6.78285,
    "longitude": -43.5594
  },
  {
    "state": "PI",
    "ibge": 2204550,
    "city": "Guaribas",
    "latitude": -9.38647,
    "longitude": -43.6943
  },
  {
    "state": "PI",
    "ibge": 2204600,
    "city": "Hugo Napoleão",
    "latitude": -5.9886,
    "longitude": -42.5598
  },
  {
    "state": "PI",
    "ibge": 2204659,
    "city": "Ilha Grande",
    "latitude": -2.85774,
    "longitude": -41.8186
  },
  {
    "state": "PI",
    "ibge": 2204709,
    "city": "Inhuma",
    "latitude": -6.665,
    "longitude": -41.7041
  },
  {
    "state": "PI",
    "ibge": 2204808,
    "city": "Ipiranga do Piauí",
    "latitude": -6.82421,
    "longitude": -41.7381
  },
  {
    "state": "PI",
    "ibge": 2204907,
    "city": "Isaías Coelho",
    "latitude": -7.73597,
    "longitude": -41.6735
  },
  {
    "state": "PI",
    "ibge": 2205003,
    "city": "Itainópolis",
    "latitude": -7.44336,
    "longitude": -41.4687
  },
  {
    "state": "PI",
    "ibge": 2205102,
    "city": "Itaueira",
    "latitude": -7.59989,
    "longitude": -43.0249
  },
  {
    "state": "PI",
    "ibge": 2205151,
    "city": "Jacobina do Piauí",
    "latitude": -7.93063,
    "longitude": -41.2075
  },
  {
    "state": "PI",
    "ibge": 2205201,
    "city": "Jaicós",
    "latitude": -7.36229,
    "longitude": -41.1371
  },
  {
    "state": "PI",
    "ibge": 2205250,
    "city": "Jardim do Mulato",
    "latitude": -6.099,
    "longitude": -42.63
  },
  {
    "state": "PI",
    "ibge": 2205276,
    "city": "Jatobá do Piauí",
    "latitude": -4.77025,
    "longitude": -41.817
  },
  {
    "state": "PI",
    "ibge": 2205300,
    "city": "Jerumenha",
    "latitude": -7.09128,
    "longitude": -43.5033
  },
  {
    "state": "PI",
    "ibge": 2205359,
    "city": "João Costa",
    "latitude": -8.50736,
    "longitude": -42.4264
  },
  {
    "state": "PI",
    "ibge": 2205409,
    "city": "Joaquim Pires",
    "latitude": -3.50164,
    "longitude": -42.1865
  },
  {
    "state": "PI",
    "ibge": 2205458,
    "city": "Joca Marques",
    "latitude": -3.4804,
    "longitude": -42.4255
  },
  {
    "state": "PI",
    "ibge": 2205508,
    "city": "José de Freitas",
    "latitude": -4.75146,
    "longitude": -42.5746
  },
  {
    "state": "PI",
    "ibge": 2205516,
    "city": "Juazeiro do Piauí",
    "latitude": -5.17459,
    "longitude": -41.6976
  },
  {
    "state": "PI",
    "ibge": 2205524,
    "city": "Júlio Borges",
    "latitude": -10.3225,
    "longitude": -44.2381
  },
  {
    "state": "PI",
    "ibge": 2205532,
    "city": "Jurema",
    "latitude": -9.21992,
    "longitude": -43.1337
  },
  {
    "state": "PI",
    "ibge": 2205557,
    "city": "Lagoa Alegre",
    "latitude": -4.51539,
    "longitude": -42.6309
  },
  {
    "state": "PI",
    "ibge": 2205573,
    "city": "Lagoa de São Francisco",
    "latitude": -4.38505,
    "longitude": -41.5969
  },
  {
    "state": "PI",
    "ibge": 2205565,
    "city": "Lagoa do Barro do Piauí",
    "latitude": -8.47673,
    "longitude": -41.5342
  },
  {
    "state": "PI",
    "ibge": 2205581,
    "city": "Lagoa do Piauí",
    "latitude": -5.41864,
    "longitude": -42.6437
  },
  {
    "state": "PI",
    "ibge": 2205599,
    "city": "Lagoa do Sítio",
    "latitude": -6.50766,
    "longitude": -41.5653
  },
  {
    "state": "PI",
    "ibge": 2205540,
    "city": "Lagoinha do Piauí",
    "latitude": -5.83074,
    "longitude": -42.6223
  },
  {
    "state": "PI",
    "ibge": 2205607,
    "city": "Landri Sales",
    "latitude": -7.25922,
    "longitude": -43.9364
  },
  {
    "state": "PI",
    "ibge": 2205706,
    "city": "Luís Correia",
    "latitude": -2.88438,
    "longitude": -41.6641
  },
  {
    "state": "PI",
    "ibge": 2205805,
    "city": "Luzilândia",
    "latitude": -3.4683,
    "longitude": -42.3718
  },
  {
    "state": "PI",
    "ibge": 2205854,
    "city": "Madeiro",
    "latitude": -3.48624,
    "longitude": -42.4981
  },
  {
    "state": "PI",
    "ibge": 2205904,
    "city": "Manoel Emídio",
    "latitude": -8.01234,
    "longitude": -43.8755
  },
  {
    "state": "PI",
    "ibge": 2205953,
    "city": "Marcolândia",
    "latitude": -7.44169,
    "longitude": -40.6602
  },
  {
    "state": "PI",
    "ibge": 2206001,
    "city": "Marcos Parente",
    "latitude": -7.11565,
    "longitude": -43.8926
  },
  {
    "state": "PI",
    "ibge": 2206050,
    "city": "Massapê do Piauí",
    "latitude": -7.47469,
    "longitude": -41.1103
  },
  {
    "state": "PI",
    "ibge": 2206100,
    "city": "Matias Olímpio",
    "latitude": -3.71492,
    "longitude": -42.5507
  },
  {
    "state": "PI",
    "ibge": 2206209,
    "city": "Miguel Alves",
    "latitude": -4.16857,
    "longitude": -42.8963
  },
  {
    "state": "PI",
    "ibge": 2206308,
    "city": "Miguel Leão",
    "latitude": -5.68077,
    "longitude": -42.7436
  },
  {
    "state": "PI",
    "ibge": 2206357,
    "city": "Milton Brandão",
    "latitude": -4.68295,
    "longitude": -41.4173
  },
  {
    "state": "PI",
    "ibge": 2206407,
    "city": "Monsenhor Gil",
    "latitude": -5.562,
    "longitude": -42.6075
  },
  {
    "state": "PI",
    "ibge": 2206506,
    "city": "Monsenhor Hipólito",
    "latitude": -6.99275,
    "longitude": -41.026
  },
  {
    "state": "PI",
    "ibge": 2206605,
    "city": "Monte Alegre do Piauí",
    "latitude": -9.75364,
    "longitude": -45.3037
  },
  {
    "state": "PI",
    "ibge": 2206654,
    "city": "Morro Cabeça no Tempo",
    "latitude": -9.71891,
    "longitude": -43.9072
  },
  {
    "state": "PI",
    "ibge": 2206670,
    "city": "Morro do Chapéu do Piauí",
    "latitude": -3.73337,
    "longitude": -42.3024
  },
  {
    "state": "PI",
    "ibge": 2206696,
    "city": "Murici dos Portelas",
    "latitude": -3.319,
    "longitude": -42.094
  },
  {
    "state": "PI",
    "ibge": 2206704,
    "city": "Nazaré do Piauí",
    "latitude": -6.97023,
    "longitude": -42.6773
  },
  {
    "state": "PI",
    "ibge": 2206720,
    "city": "Nazária",
    "latitude": -5.35128,
    "longitude": -42.8153
  },
  {
    "state": "PI",
    "ibge": 2206753,
    "city": "Nossa Senhora de Nazaré",
    "latitude": -4.63019,
    "longitude": -42.173
  },
  {
    "state": "PI",
    "ibge": 2206803,
    "city": "Nossa Senhora dos Remédios",
    "latitude": -3.97574,
    "longitude": -42.6184
  },
  {
    "state": "PI",
    "ibge": 2207959,
    "city": "Nova Santa Rita",
    "latitude": -8.09707,
    "longitude": -42.0471
  },
  {
    "state": "PI",
    "ibge": 2206902,
    "city": "Novo Oriente do Piauí",
    "latitude": -6.44901,
    "longitude": -41.9261
  },
  {
    "state": "PI",
    "ibge": 2206951,
    "city": "Novo Santo Antônio",
    "latitude": -5.28749,
    "longitude": -41.9325
  },
  {
    "state": "PI",
    "ibge": 2207009,
    "city": "Oeiras",
    "latitude": -7.01915,
    "longitude": -42.1283
  },
  {
    "state": "PI",
    "ibge": 2207108,
    "city": "Olho D'Água do Piauí",
    "latitude": -5.84125,
    "longitude": -42.5594
  },
  {
    "state": "PI",
    "ibge": 2207207,
    "city": "Padre Marcos",
    "latitude": -7.35101,
    "longitude": -40.8997
  },
  {
    "state": "PI",
    "ibge": 2207306,
    "city": "Paes Landim",
    "latitude": -7.77375,
    "longitude": -42.2474
  },
  {
    "state": "PI",
    "ibge": 2207355,
    "city": "Pajeú do Piauí",
    "latitude": -7.85508,
    "longitude": -42.8248
  },
  {
    "state": "PI",
    "ibge": 2207405,
    "city": "Palmeira do Piauí",
    "latitude": -8.73076,
    "longitude": -44.2466
  },
  {
    "state": "PI",
    "ibge": 2207504,
    "city": "Palmeirais",
    "latitude": -5.97086,
    "longitude": -43.056
  },
  {
    "state": "PI",
    "ibge": 2207553,
    "city": "Paquetá",
    "latitude": -7.10303,
    "longitude": -41.7
  },
  {
    "state": "PI",
    "ibge": 2207603,
    "city": "Parnaguá",
    "latitude": -10.2166,
    "longitude": -44.63
  },
  {
    "state": "PI",
    "ibge": 2207702,
    "city": "Parnaíba",
    "latitude": -2.90585,
    "longitude": -41.7754
  },
  {
    "state": "PI",
    "ibge": 2207751,
    "city": "Passagem Franca do Piauí",
    "latitude": -5.86036,
    "longitude": -42.4436
  },
  {
    "state": "PI",
    "ibge": 2207777,
    "city": "Patos do Piauí",
    "latitude": -7.67231,
    "longitude": -41.2408
  },
  {
    "state": "PI",
    "ibge": 2207793,
    "city": "Pau D'Arco do Piauí",
    "latitude": -5.26072,
    "longitude": -42.3908
  },
  {
    "state": "PI",
    "ibge": 2207801,
    "city": "Paulistana",
    "latitude": -8.13436,
    "longitude": -41.1431
  },
  {
    "state": "PI",
    "ibge": 2207850,
    "city": "Pavussu",
    "latitude": -7.96059,
    "longitude": -43.2284
  },
  {
    "state": "PI",
    "ibge": 2207900,
    "city": "Pedro II",
    "latitude": -4.42585,
    "longitude": -41.4482
  },
  {
    "state": "PI",
    "ibge": 2207934,
    "city": "Pedro Laurentino",
    "latitude": -8.06807,
    "longitude": -42.2847
  },
  {
    "state": "PI",
    "ibge": 2208007,
    "city": "Picos",
    "latitude": -7.07721,
    "longitude": -41.467
  },
  {
    "state": "PI",
    "ibge": 2208106,
    "city": "Pimenteiras",
    "latitude": -6.23839,
    "longitude": -41.4113
  },
  {
    "state": "PI",
    "ibge": 2208205,
    "city": "Pio IX",
    "latitude": -6.83002,
    "longitude": -40.6083
  },
  {
    "state": "PI",
    "ibge": 2208304,
    "city": "Piracuruca",
    "latitude": -3.93335,
    "longitude": -41.7088
  },
  {
    "state": "PI",
    "ibge": 2208403,
    "city": "Piripiri",
    "latitude": -4.27157,
    "longitude": -41.7716
  },
  {
    "state": "PI",
    "ibge": 2208502,
    "city": "Porto",
    "latitude": -3.88815,
    "longitude": -42.6998
  },
  {
    "state": "PI",
    "ibge": 2208551,
    "city": "Porto Alegre do Piauí",
    "latitude": -6.96423,
    "longitude": -44.1837
  },
  {
    "state": "PI",
    "ibge": 2208601,
    "city": "Prata do Piauí",
    "latitude": -5.67265,
    "longitude": -42.2046
  },
  {
    "state": "PI",
    "ibge": 2208650,
    "city": "Queimada Nova",
    "latitude": -8.57064,
    "longitude": -41.4106
  },
  {
    "state": "PI",
    "ibge": 2208700,
    "city": "Redenção do Gurguéia",
    "latitude": -9.47937,
    "longitude": -44.5811
  },
  {
    "state": "PI",
    "ibge": 2208809,
    "city": "Regeneração",
    "latitude": -6.23115,
    "longitude": -42.6842
  },
  {
    "state": "PI",
    "ibge": 2208858,
    "city": "Riacho Frio",
    "latitude": -10.1244,
    "longitude": -44.9503
  },
  {
    "state": "PI",
    "ibge": 2208874,
    "city": "Ribeira do Piauí",
    "latitude": -7.69028,
    "longitude": -42.7128
  },
  {
    "state": "PI",
    "ibge": 2208908,
    "city": "Ribeiro Gonçalves",
    "latitude": -7.55651,
    "longitude": -45.2447
  },
  {
    "state": "PI",
    "ibge": 2209005,
    "city": "Rio Grande do Piauí",
    "latitude": -7.78029,
    "longitude": -43.1369
  },
  {
    "state": "PI",
    "ibge": 2209104,
    "city": "Santa Cruz do Piauí",
    "latitude": -7.1785,
    "longitude": -41.7609
  },
  {
    "state": "PI",
    "ibge": 2209153,
    "city": "Santa Cruz dos Milagres",
    "latitude": -5.80581,
    "longitude": -41.9506
  },
  {
    "state": "PI",
    "ibge": 2209203,
    "city": "Santa Filomena",
    "latitude": -9.11228,
    "longitude": -45.9116
  },
  {
    "state": "PI",
    "ibge": 2209302,
    "city": "Santa Luz",
    "latitude": -8.9488,
    "longitude": -44.1296
  },
  {
    "state": "PI",
    "ibge": 2209377,
    "city": "Santa Rosa do Piauí",
    "latitude": -6.79581,
    "longitude": -42.2814
  },
  {
    "state": "PI",
    "ibge": 2209351,
    "city": "Santana do Piauí",
    "latitude": -6.94696,
    "longitude": -41.5178
  },
  {
    "state": "PI",
    "ibge": 2209401,
    "city": "Santo Antônio de Lisboa",
    "latitude": -6.98676,
    "longitude": -41.2252
  },
  {
    "state": "PI",
    "ibge": 2209450,
    "city": "Santo Antônio dos Milagres",
    "latitude": -6.04647,
    "longitude": -42.7123
  },
  {
    "state": "PI",
    "ibge": 2209500,
    "city": "Santo Inácio do Piauí",
    "latitude": -7.42072,
    "longitude": -41.9063
  },
  {
    "state": "PI",
    "ibge": 2209559,
    "city": "São Braz do Piauí",
    "latitude": -9.05797,
    "longitude": -43.0076
  },
  {
    "state": "PI",
    "ibge": 2209609,
    "city": "São Félix do Piauí",
    "latitude": -5.93485,
    "longitude": -42.1172
  },
  {
    "state": "PI",
    "ibge": 2209658,
    "city": "São Francisco de Assis do Piauí",
    "latitude": -8.23599,
    "longitude": -41.6873
  },
  {
    "state": "PI",
    "ibge": 2209708,
    "city": "São Francisco do Piauí",
    "latitude": -7.2463,
    "longitude": -42.541
  },
  {
    "state": "PI",
    "ibge": 2209757,
    "city": "São Gonçalo do Gurguéia",
    "latitude": -10.0319,
    "longitude": -45.3092
  },
  {
    "state": "PI",
    "ibge": 2209807,
    "city": "São Gonçalo do Piauí",
    "latitude": -5.99393,
    "longitude": -42.7095
  },
  {
    "state": "PI",
    "ibge": 2209856,
    "city": "São João da Canabrava",
    "latitude": -6.81203,
    "longitude": -41.3415
  },
  {
    "state": "PI",
    "ibge": 2209872,
    "city": "São João da Fronteira",
    "latitude": -3.95497,
    "longitude": -41.2569
  },
  {
    "state": "PI",
    "ibge": 2209906,
    "city": "São João da Serra",
    "latitude": -5.51081,
    "longitude": -41.8923
  },
  {
    "state": "PI",
    "ibge": 2209955,
    "city": "São João da Varjota",
    "latitude": -6.94082,
    "longitude": -41.8889
  },
  {
    "state": "PI",
    "ibge": 2209971,
    "city": "São João do Arraial",
    "latitude": -3.8186,
    "longitude": -42.4459
  },
  {
    "state": "PI",
    "ibge": 2210003,
    "city": "São João do Piauí",
    "latitude": -8.35466,
    "longitude": -42.2559
  },
  {
    "state": "PI",
    "ibge": 2210052,
    "city": "São José do Divino",
    "latitude": -3.81411,
    "longitude": -41.8308
  },
  {
    "state": "PI",
    "ibge": 2210102,
    "city": "São José do Peixe",
    "latitude": -7.48554,
    "longitude": -42.5672
  },
  {
    "state": "PI",
    "ibge": 2210201,
    "city": "São José do Piauí",
    "latitude": -6.87194,
    "longitude": -41.4731
  },
  {
    "state": "PI",
    "ibge": 2210300,
    "city": "São Julião",
    "latitude": -7.08391,
    "longitude": -40.8246
  },
  {
    "state": "PI",
    "ibge": 2210359,
    "city": "São Lourenço do Piauí",
    "latitude": -9.16463,
    "longitude": -42.5496
  },
  {
    "state": "PI",
    "ibge": 2210375,
    "city": "São Luis do Piauí",
    "latitude": -6.81936,
    "longitude": -41.3175
  },
  {
    "state": "PI",
    "ibge": 2210383,
    "city": "São Miguel da Baixa Grande",
    "latitude": -5.85646,
    "longitude": -42.1934
  },
  {
    "state": "PI",
    "ibge": 2210391,
    "city": "São Miguel do Fidalgo",
    "latitude": -7.59713,
    "longitude": -42.3676
  },
  {
    "state": "PI",
    "ibge": 2210409,
    "city": "São Miguel do Tapuio",
    "latitude": -5.49729,
    "longitude": -41.3165
  },
  {
    "state": "PI",
    "ibge": 2210508,
    "city": "São Pedro do Piauí",
    "latitude": -5.92078,
    "longitude": -42.7192
  },
  {
    "state": "PI",
    "ibge": 2210607,
    "city": "São Raimundo Nonato",
    "latitude": -9.01241,
    "longitude": -42.6987
  },
  {
    "state": "PI",
    "ibge": 2210623,
    "city": "Sebastião Barros",
    "latitude": -10.817,
    "longitude": -44.8337
  },
  {
    "state": "PI",
    "ibge": 2210631,
    "city": "Sebastião Leal",
    "latitude": -7.56803,
    "longitude": -44.06
  },
  {
    "state": "PI",
    "ibge": 2210656,
    "city": "Sigefredo Pacheco",
    "latitude": -4.91665,
    "longitude": -41.7311
  },
  {
    "state": "PI",
    "ibge": 2210706,
    "city": "Simões",
    "latitude": -7.59109,
    "longitude": -40.8137
  },
  {
    "state": "PI",
    "ibge": 2210805,
    "city": "Simplício Mendes",
    "latitude": -7.85294,
    "longitude": -41.9075
  },
  {
    "state": "PI",
    "ibge": 2210904,
    "city": "Socorro do Piauí",
    "latitude": -7.86773,
    "longitude": -42.4922
  },
  {
    "state": "PI",
    "ibge": 2210938,
    "city": "Sussuapara",
    "latitude": -7.03687,
    "longitude": -41.3767
  },
  {
    "state": "PI",
    "ibge": 2210953,
    "city": "Tamboril do Piauí",
    "latitude": -8.40937,
    "longitude": -42.9211
  },
  {
    "state": "PI",
    "ibge": 2210979,
    "city": "Tanque do Piauí",
    "latitude": -6.59787,
    "longitude": -42.2795
  },
  {
    "state": "PI",
    "ibge": 2211001,
    "city": "Teresina",
    "latitude": -5.09194,
    "longitude": -42.8034
  },
  {
    "state": "PI",
    "ibge": 2211100,
    "city": "União",
    "latitude": -4.58571,
    "longitude": -42.8583
  },
  {
    "state": "PI",
    "ibge": 2211209,
    "city": "Uruçuí",
    "latitude": -7.23944,
    "longitude": -44.5577
  },
  {
    "state": "PI",
    "ibge": 2211308,
    "city": "Valença do Piauí",
    "latitude": -6.40301,
    "longitude": -41.7375
  },
  {
    "state": "PI",
    "ibge": 2211357,
    "city": "Várzea Branca",
    "latitude": -9.238,
    "longitude": -42.9692
  },
  {
    "state": "PI",
    "ibge": 2211407,
    "city": "Várzea Grande",
    "latitude": -6.54899,
    "longitude": -42.248
  },
  {
    "state": "PI",
    "ibge": 2211506,
    "city": "Vera Mendes",
    "latitude": -7.59748,
    "longitude": -41.4673
  },
  {
    "state": "PI",
    "ibge": 2211605,
    "city": "Vila Nova do Piauí",
    "latitude": -7.13272,
    "longitude": -40.9345
  },
  {
    "state": "PI",
    "ibge": 2211704,
    "city": "Wall Ferraz",
    "latitude": -7.23151,
    "longitude": -41.905
  }
]