[
  {
    "state": "TO",
    "ibge": 1700251,
    "city": "Abreulândia",
    "latitude": -9.62101,
    "longitude": -49.1518
  },
  {
    "state": "TO",
    "ibge": 1700301,
    "city": "Aguiarnópolis",
    "latitude": -6.55409,
    "longitude": -47.4702
  },
  {
    "state": "TO",
    "ibge": 1700350,
    "city": "Aliança do Tocantins",
    "latitude": -11.3056,
    "longitude": -48.9361
  },
  {
    "state": "TO",
    "ibge": 1700400,
    "city": "Almas",
    "latitude": -11.5706,
    "longitude": -47.1792
  },
  {
    "state": "TO",
    "ibge": 1700707,
    "city": "Alvorada",
    "latitude": -12.4785,
    "longitude": -49.1249
  },
  {
    "state": "TO",
    "ibge": 1701002,
    "city": "Ananás",
    "latitude": -6.36437,
    "longitude": -48.0735
  },
  {
    "state": "TO",
    "ibge": 1701051,
    "city": "Angico",
    "latitude": -6.39179,
    "longitude": -47.8611
  },
  {
    "state": "TO",
    "ibge": 1701101,
    "city": "Aparecida do Rio Negro",
    "latitude": -9.94139,
    "longitude": -47.9638
  },
  {
    "state": "TO",
    "ibge": 1701309,
    "city": "Aragominas",
    "latitude": -7.16005,
    "longitude": -48.5291
  },
  {
    "state": "TO",
    "ibge": 1701903,
    "city": "Araguacema",
    "latitude": -8.80755,
    "longitude": -49.5569
  },
  {
    "state": "TO",
    "ibge": 1702000,
    "city": "Araguaçu",
    "latitude": -12.9289,
    "longitude": -49.8231
  },
  {
    "state": "TO",
    "ibge": 1702109,
    "city": "Araguaína",
    "latitude": -7.19238,
    "longitude": -48.2044
  },
  {
    "state": "TO",
    "ibge": 1702158,
    "city": "Araguanã",
    "latitude": -6.58225,
    "longitude": -48.6395
  },
  {
    "state": "TO",
    "ibge": 1702208,
    "city": "Araguatins",
    "latitude": -5.64659,
    "longitude": -48.1232
  },
  {
    "state": "TO",
    "ibge": 1702307,
    "city": "Arapoema",
    "latitude": -7.65463,
    "longitude": -49.0637
  },
  {
    "state": "TO",
    "ibge": 1702406,
    "city": "Arraias",
    "latitude": -12.9287,
    "longitude": -46.9359
  },
  {
    "state": "TO",
    "ibge": 1702554,
    "city": "Augustinópolis",
    "latitude": -5.46863,
    "longitude": -47.8863
  },
  {
    "state": "TO",
    "ibge": 1702703,
    "city": "Aurora do Tocantins",
    "latitude": -12.7105,
    "longitude": -46.4076
  },
  {
    "state": "TO",
    "ibge": 1702901,
    "city": "Axixá do Tocantins",
    "latitude": -5.61275,
    "longitude": -47.7701
  },
  {
    "state": "TO",
    "ibge": 1703008,
    "city": "Babaçulândia",
    "latitude": -7.20923,
    "longitude": -47.7613
  },
  {
    "state": "TO",
    "ibge": 1703057,
    "city": "Bandeirantes do Tocantins",
    "latitude": -7.75612,
    "longitude": -48.5836
  },
  {
    "state": "TO",
    "ibge": 1703073,
    "city": "Barra do Ouro",
    "latitude": -7.69593,
    "longitude": -47.6776
  },
  {
    "state": "TO",
    "ibge": 1703107,
    "city": "Barrolândia",
    "latitude": -9.83404,
    "longitude": -48.7252
  },
  {
    "state": "TO",
    "ibge": 1703206,
    "city": "Bernardo Sayão",
    "latitude": -7.87481,
    "longitude": -48.8893
  },
  {
    "state": "TO",
    "ibge": 1703305,
    "city": "Bom Jesus do Tocantins",
    "latitude": -8.96306,
    "longitude": -48.165
  },
  {
    "state": "TO",
    "ibge": 1703602,
    "city": "Brasilândia do Tocantins",
    "latitude": -8.38918,
    "longitude": -48.4822
  },
  {
    "state": "TO",
    "ibge": 1703701,
    "city": "Brejinho de Nazaré",
    "latitude": -11.0058,
    "longitude": -48.5683
  },
  {
    "state": "TO",
    "ibge": 1703800,
    "city": "Buriti do Tocantins",
    "latitude": -5.31448,
    "longitude": -48.2271
  },
  {
    "state": "TO",
    "ibge": 1703826,
    "city": "Cachoeirinha",
    "latitude": -6.1156,
    "longitude": -47.9234
  },
  {
    "state": "TO",
    "ibge": 1703842,
    "city": "Campos Lindos",
    "latitude": -7.98956,
    "longitude": -46.8645
  },
  {
    "state": "TO",
    "ibge": 1703867,
    "city": "Cariri do Tocantins",
    "latitude": -11.8881,
    "longitude": -49.1609
  },
  {
    "state": "TO",
    "ibge": 1703883,
    "city": "Carmolândia",
    "latitude": -7.03262,
    "longitude": -48.3978
  },
  {
    "state": "TO",
    "ibge": 1703891,
    "city": "Carrasco Bonito",
    "latitude": -5.31415,
    "longitude": -48.0314
  },
  {
    "state": "TO",
    "ibge": 1703909,
    "city": "Caseara",
    "latitude": -9.27612,
    "longitude": -49.9521
  },
  {
    "state": "TO",
    "ibge": 1704105,
    "city": "Centenário",
    "latitude": -8.96103,
    "longitude": -47.3304
  },
  {
    "state": "TO",
    "ibge": 1705102,
    "city": "Chapada da Natividade",
    "latitude": -11.6175,
    "longitude": -47.7486
  },
  {
    "state": "TO",
    "ibge": 1704600,
    "city": "Chapada de Areia",
    "latitude": -10.1419,
    "longitude": -49.1403
  },
  {
    "state": "TO",
    "ibge": 1705508,
    "city": "Colinas do Tocantins",
    "latitude": -8.05764,
    "longitude": -48.4757
  },
  {
    "state": "TO",
    "ibge": 1716703,
    "city": "Colméia",
    "latitude": -8.72463,
    "longitude": -48.7638
  },
  {
    "state": "TO",
    "ibge": 1705557,
    "city": "Combinado",
    "latitude": -12.7917,
    "longitude": -46.5388
  },
  {
    "state": "TO",
    "ibge": 1705607,
    "city": "Conceição do Tocantins",
    "latitude": -12.2209,
    "longitude": -47.2951
  },
  {
    "state": "TO",
    "ibge": 1706001,
    "city": "Couto Magalhães",
    "latitude": -8.28411,
    "longitude": -49.2473
  },
  {
    "state": "TO",
    "ibge": 1706100,
    "city": "Cristalândia",
    "latitude": -10.5985,
    "longitude": -49.1942
  },
  {
    "state": "TO",
    "ibge": 1706258,
    "city": "Crixás do Tocantins",
    "latitude": -11.0994,
    "longitude": -48.9152
  },
  {
    "state": "TO",
    "ibge": 1706506,
    "city": "Darcinópolis",
    "latitude": -6.71591,
    "longitude": -47.7597
  },
  {
    "state": "TO",
    "ibge": 1707009,
    "city": "Dianópolis",
    "latitude": -11.624,
    "longitude": -46.8198
  },
  {
    "state": "TO",
    "ibge": 1707108,
    "city": "Divinópolis do Tocantins",
    "latitude": -9.80018,
    "longitude": -49.2169
  },
  {
    "state": "TO",
    "ibge": 1707207,
    "city": "Dois Irmãos do Tocantins",
    "latitude": -9.25534,
    "longitude": -49.0638
  },
  {
    "state": "TO",
    "ibge": 1707306,
    "city": "Dueré",
    "latitude": -11.3416,
    "longitude": -49.2716
  },
  {
    "state": "TO",
    "ibge": 1707405,
    "city": "Esperantina",
    "latitude": -5.36593,
    "longitude": -48.5378
  },
  {
    "state": "TO",
    "ibge": 1707553,
    "city": "Fátima",
    "latitude": -10.7603,
    "longitude": -48.9076
  },
  {
    "state": "TO",
    "ibge": 1707652,
    "city": "Figueirópolis",
    "latitude": -12.1312,
    "longitude": -49.1748
  },
  {
    "state": "TO",
    "ibge": 1707702,
    "city": "Filadélfia",
    "latitude": -7.33501,
    "longitude": -47.4954
  },
  {
    "state": "TO",
    "ibge": 1708205,
    "city": "Formoso do Araguaia",
    "latitude": -11.7976,
    "longitude": -49.5316
  },
  {
    "state": "TO",
    "ibge": 1708254,
    "city": "Fortaleza do Tabocão",
    "latitude": -9.05611,
    "longitude": -48.5206
  },
  {
    "state": "TO",
    "ibge": 1708304,
    "city": "Goianorte",
    "latitude": -8.77413,
    "longitude": -48.9313
  },
  {
    "state": "TO",
    "ibge": 1709005,
    "city": "Goiatins",
    "latitude": -7.71478,
    "longitude": -47.3252
  },
  {
    "state": "TO",
    "ibge": 1709302,
    "city": "Guaraí",
    "latitude": -8.83543,
    "longitude": -48.5114
  },
  {
    "state": "TO",
    "ibge": 1709500,
    "city": "Gurupi",
    "latitude": -11.7279,
    "longitude": -49.068
  },
  {
    "state": "TO",
    "ibge": 1709807,
    "city": "Ipueiras",
    "latitude": -11.2329,
    "longitude": -48.46
  },
  {
    "state": "TO",
    "ibge": 1710508,
    "city": "Itacajá",
    "latitude": -8.39293,
    "longitude": -47.7726
  },
  {
    "state": "TO",
    "ibge": 1710706,
    "city": "Itaguatins",
    "latitude": -5.77267,
    "longitude": -47.4864
  },
  {
    "state": "TO",
    "ibge": 1710904,
    "city": "Itapiratins",
    "latitude": -8.37982,
    "longitude": -48.1072
  },
  {
    "state": "TO",
    "ibge": 1711100,
    "city": "Itaporã do Tocantins",
    "latitude": -8.57172,
    "longitude": -48.6895
  },
  {
    "state": "TO",
    "ibge": 1711506,
    "city": "Jaú do Tocantins",
    "latitude": -12.6509,
    "longitude": -48.589
  },
  {
    "state": "TO",
    "ibge": 1711803,
    "city": "Juarina",
    "latitude": -8.11951,
    "longitude": -49.0643
  },
  {
    "state": "TO",
    "ibge": 1711902,
    "city": "Lagoa da Confusão",
    "latitude": -10.7906,
    "longitude": -49.6199
  },
  {
    "state": "TO",
    "ibge": 1711951,
    "city": "Lagoa do Tocantins",
    "latitude": -10.368,
    "longitude": -47.538
  },
  {
    "state": "TO",
    "ibge": 1712009,
    "city": "Lajeado",
    "latitude": -9.74996,
    "longitude": -48.3565
  },
  {
    "state": "TO",
    "ibge": 1712157,
    "city": "Lavandeira",
    "latitude": -12.7847,
    "longitude": -46.5099
  },
  {
    "state": "TO",
    "ibge": 1712405,
    "city": "Lizarda",
    "latitude": -9.59002,
    "longitude": -46.6738
  },
  {
    "state": "TO",
    "ibge": 1712454,
    "city": "Luzinópolis",
    "latitude": -6.17794,
    "longitude": -47.8582
  },
  {
    "state": "TO",
    "ibge": 1712504,
    "city": "Marianópolis do Tocantins",
    "latitude": -9.79377,
    "longitude": -49.6553
  },
  {
    "state": "TO",
    "ibge": 1712702,
    "city": "Mateiros",
    "latitude": -10.5464,
    "longitude": -46.4168
  },
  {
    "state": "TO",
    "ibge": 1712801,
    "city": "Maurilândia do Tocantins",
    "latitude": -5.95169,
    "longitude": -47.5125
  },
  {
    "state": "TO",
    "ibge": 1713205,
    "city": "Miracema do Tocantins",
    "latitude": -9.56556,
    "longitude": -48.393
  },
  {
    "state": "TO",
    "ibge": 1713304,
    "city": "Miranorte",
    "latitude": -9.52907,
    "longitude": -48.5922
  },
  {
    "state": "TO",
    "ibge": 1713601,
    "city": "Monte do Carmo",
    "latitude": -10.7611,
    "longitude": -48.1114
  },
  {
    "state": "TO",
    "ibge": 1713700,
    "city": "Monte Santo do Tocantins",
    "latitude": -10.0075,
    "longitude": -48.9941
  },
  {
    "state": "TO",
    "ibge": 1713957,
    "city": "Muricilândia",
    "latitude": -7.14669,
    "longitude": -48.6091
  },
  {
    "state": "TO",
    "ibge": 1714203,
    "city": "Natividade",
    "latitude": -11.7034,
    "longitude": -47.7223
  },
  {
    "state": "TO",
    "ibge": 1714302,
    "city": "Nazaré",
    "latitude": -6.37496,
    "longitude": -47.6643
  },
  {
    "state": "TO",
    "ibge": 1714880,
    "city": "Nova Olinda",
    "latitude": -7.63171,
    "longitude": -48.4252
  },
  {
    "state": "TO",
    "ibge": 1715002,
    "city": "Nova Rosalândia",
    "latitude": -10.5651,
    "longitude": -48.9125
  },
  {
    "state": "TO",
    "ibge": 1715101,
    "city": "Novo Acordo",
    "latitude": -9.97063,
    "longitude": -47.6785
  },
  {
    "state": "TO",
    "ibge": 1715150,
    "city": "Novo Alegre",
    "latitude": -12.9217,
    "longitude": -46.5713
  },
  {
    "state": "TO",
    "ibge": 1715259,
    "city": "Novo Jardim",
    "latitude": -11.826,
    "longitude": -46.6325
  },
  {
    "state": "TO",
    "ibge": 1715507,
    "city": "Oliveira de Fátima",
    "latitude": -10.707,
    "longitude": -48.9086
  },
  {
    "state": "TO",
    "ibge": 1721000,
    "city": "Palmas",
    "latitude": -10.24,
    "longitude": -48.3558
  },
  {
    "state": "TO",
    "ibge": 1715705,
    "city": "Palmeirante",
    "latitude": -7.84786,
    "longitude": -47.9242
  },
  {
    "state": "TO",
    "ibge": 1713809,
    "city": "Palmeiras do Tocantins",
    "latitude": -6.61658,
    "longitude": -47.5464
  },
  {
    "state": "TO",
    "ibge": 1715754,
    "city": "Palmeirópolis",
    "latitude": -13.0447,
    "longitude": -48.4026
  },
  {
    "state": "TO",
    "ibge": 1716109,
    "city": "Paraíso do Tocantins",
    "latitude": -10.175,
    "longitude": -48.8823
  },
  {
    "state": "TO",
    "ibge": 1716208,
    "city": "Paranã",
    "latitude": -12.6167,
    "longitude": -47.8734
  },
  {
    "state": "TO",
    "ibge": 1716307,
    "city": "Pau D'Arco",
    "latitude": -7.53919,
    "longitude": -49.367
  },
  {
    "state": "TO",
    "ibge": 1716505,
    "city": "Pedro Afonso",
    "latitude": -8.97034,
    "longitude": -48.1729
  },
  {
    "state": "TO",
    "ibge": 1716604,
    "city": "Peixe",
    "latitude": -12.0254,
    "longitude": -48.5395
  },
  {
    "state": "TO",
    "ibge": 1716653,
    "city": "Pequizeiro",
    "latitude": -8.5932,
    "longitude": -48.9327
  },
  {
    "state": "TO",
    "ibge": 1717008,
    "city": "Pindorama do Tocantins",
    "latitude": -11.1311,
    "longitude": -47.5726
  },
  {
    "state": "TO",
    "ibge": 1717206,
    "city": "Piraquê",
    "latitude": -6.77302,
    "longitude": -48.2958
  },
  {
    "state": "TO",
    "ibge": 1717503,
    "city": "Pium",
    "latitude": -10.442,
    "longitude": -49.1876
  },
  {
    "state": "TO",
    "ibge": 1717800,
    "city": "Ponte Alta do Bom Jesus",
    "latitude": -12.0853,
    "longitude": -46.4825
  },
  {
    "state": "TO",
    "ibge": 1717909,
    "city": "Ponte Alta do Tocantins",
    "latitude": -10.7481,
    "longitude": -47.5276
  },
  {
    "state": "TO",
    "ibge": 1718006,
    "city": "Porto Alegre do Tocantins",
    "latitude": -11.618,
    "longitude": -47.0621
  },
  {
    "state": "TO",
    "ibge": 1718204,
    "city": "Porto Nacional",
    "latitude": -10.7027,
    "longitude": -48.408
  },
  {
    "state": "TO",
    "ibge": 1718303,
    "city": "Praia Norte",
    "latitude": -5.39281,
    "longitude": -47.8111
  },
  {
    "state": "TO",
    "ibge": 1718402,
    "city": "Presidente Kennedy",
    "latitude": -8.5406,
    "longitude": -48.5062
  },
  {
    "state": "TO",
    "ibge": 1718451,
    "city": "Pugmil",
    "latitude": -10.424,
    "longitude": -48.8957
  },
  {
    "state": "TO",
    "ibge": 1718501,
    "city": "Recursolândia",
    "latitude": -8.7227,
    "longitude": -47.2421
  },
  {
    "state": "TO",
    "ibge": 1718550,
    "city": "Riachinho",
    "latitude": -6.44005,
    "longitude": -48.1371
  },
  {
    "state": "TO",
    "ibge": 1718659,
    "city": "Rio da Conceição",
    "latitude": -11.3949,
    "longitude": -46.8847
  },
  {
    "state": "TO",
    "ibge": 1718709,
    "city": "Rio dos Bois",
    "latitude": -9.34425,
    "longitude": -48.5245
  },
  {
    "state": "TO",
    "ibge": 1718758,
    "city": "Rio Sono",
    "latitude": -9.35002,
    "longitude": -47.888
  },
  {
    "state": "TO",
    "ibge": 1718808,
    "city": "Sampaio",
    "latitude": -5.35423,
    "longitude": -47.8782
  },
  {
    "state": "TO",
    "ibge": 1718840,
    "city": "Sandolândia",
    "latitude": -12.538,
    "longitude": -49.9242
  },
  {
    "state": "TO",
    "ibge": 1718865,
    "city": "Santa Fé do Araguaia",
    "latitude": -7.15803,
    "longitude": -48.7165
  },
  {
    "state": "TO",
    "ibge": 1718881,
    "city": "Santa Maria do Tocantins",
    "latitude": -8.8046,
    "longitude": -47.7887
  },
  {
    "state": "TO",
    "ibge": 1718899,
    "city": "Santa Rita do Tocantins",
    "latitude": -10.8617,
    "longitude": -48.9161
  },
  {
    "state": "TO",
    "ibge": 1718907,
    "city": "Santa Rosa do Tocantins",
    "latitude": -11.4474,
    "longitude": -48.1216
  },
  {
    "state": "TO",
    "ibge": 1719004,
    "city": "Santa Tereza do Tocantins",
    "latitude": -10.2746,
    "longitude": -47.8033
  },
  {
    "state": "TO",
    "ibge": 1720002,
    "city": "Santa Terezinha do Tocantins",
    "latitude": -6.44438,
    "longitude": -47.6684
  },
  {
    "state": "TO",
    "ibge": 1720101,
    "city": "São Bento do Tocantins",
    "latitude": -6.0258,
    "longitude": -47.9012
  },
  {
    "state": "TO",
    "ibge": 1720150,
    "city": "São Félix do Tocantins",
    "latitude": -10.1615,
    "longitude": -46.6618
  },
  {
    "state": "TO",
    "ibge": 1720200,
    "city": "São Miguel do Tocantins",
    "latitude": -5.56305,
    "longitude": -47.5743
  },
  {
    "state": "TO",
    "ibge": 1720259,
    "city": "São Salvador do Tocantins",
    "latitude": -12.7458,
    "longitude": -48.2352
  },
  {
    "state": "TO",
    "ibge": 1720309,
    "city": "São Sebastião do Tocantins",
    "latitude": -5.26131,
    "longitude": -48.2021
  },
  {
    "state": "TO",
    "ibge": 1720499,
    "city": "São Valério",
    "latitude": -11.9743,
    "longitude": -48.2353
  },
  {
    "state": "TO",
    "ibge": 1720655,
    "city": "Silvanópolis",
    "latitude": -11.1471,
    "longitude": -48.1694
  },
  {
    "state": "TO",
    "ibge": 1720804,
    "city": "Sítio Novo do Tocantins",
    "latitude": -5.6012,
    "longitude": -47.6381
  },
  {
    "state": "TO",
    "ibge": 1720853,
    "city": "Sucupira",
    "latitude": -11.993,
    "longitude": -48.9685
  },
  {
    "state": "TO",
    "ibge": 1720903,
    "city": "Taguatinga",
    "latitude": -12.4026,
    "longitude": -46.437
  },
  {
    "state": "TO",
    "ibge": 1720937,
    "city": "Taipas do Tocantins",
    "latitude": -12.1873,
    "longitude": -46.9797
  },
  {
    "state": "TO",
    "ibge": 1720978,
    "city": "Talismã",
    "latitude": -12.7949,
    "longitude": -49.0896
  },
  {
    "state": "TO",
    "ibge": 1721109,
    "city": "Tocantínia",
    "latitude": -9.5632,
    "longitude": -48.3741
  },
  {
    "state": "TO",
    "ibge": 1721208,
    "city": "Tocantinópolis",
    "latitude": -6.32447,
    "longitude": -47.4224
  },
  {
    "state": "TO",
    "ibge": 1721257,
    "city": "Tupirama",
    "latitude": -8.97168,
    "longitude": -48.1883
  },
  {
    "state": "TO",
    "ibge": 1721307,
    "city": "Tupiratins",
    "latitude": -8.39388,
    "longitude": -48.1277
  },
  {
    "state": "TO",
    "ibge": 1722081,
    "city": "Wanderlândia",
    "latitude": -6.85274,
    "longitude": -47.9601
  },
  {
    "state": "TO",
    "ibge": 1722107,
    "city": "Xambioá",
    "latitude": -6.4141,
    "longitude": -48.532
  }
]